[
  {
    "id": "hadong_001",
    "name": "California Fitness & Yoga Center Hà Đông",
    "address": "Tầng 4, TTTM Vincom Mega Mall Royal City, 72A Nguyễn Trãi, Quận Hà Đông, Hà Nội",
    "phone": "1800 6995",
    "hours": "6:00 - 22:00",
    "description": "Trung tâm thể dục California Fitness & Yoga Center hàng đầu tại Hà Nội.",
    "latitude": 20.998178,
    "longitude": 105.792065,
    "imageUrls": [
      "https://example.com/gym1_img1.jpg",
      "https://example.com/gym1_img2.jpg"
    ],
    "services": [
      "Yoga",
      "Zumba",
      "Huấn luyện viên cá nhân",
      "Đạp xe trong nhà"
    ],
    "amenities": [
      "Phòng xông hơi",
      "Bể bơi",
      "Quầy bar dinh dưỡng"
    ],
    "trainers": [
      {
        "id": "trainer_001",
        "name": "Trần Minh Khôi",
        "specialization": "Yoga",
        "rating": 4.9,
        "imageUrl": "https://example.com/trainer1.jpg",
        "phone": "0912345678",
        "description": "Chuyên gia Yoga với 10 năm kinh nghiệm."
      },
      {
        "id": "trainer_002",
        "name": "Nguyễn Thị Mai Anh",
        "specialization": "Zumba",
        "rating": 4.8,
        "imageUrl": "https://example.com/trainer2.jpg",
        "phone": "0987654321",
        "description": "HLV Zumba năng động và sáng tạo."
      }
    ]
  },
  {
    "id": "hadong_002",
    "name": "Elite Fitness Hà Đông",
    "address": "Tầng 5, TTTM Hồ Gươm Plaza, 110 Trần Phú, Quận Hà Đông, Hà Nội",
    "phone": "024 7307 9966",
    "hours": "6:00 - 22:00",
    "description": "Phòng tập Elite Fitness hiện đại với đầy đủ tiện ích.",
    "latitude": 20.978135,
    "longitude": 105.781921,
    "imageUrls": [
      "https://example.com/gym2_img1.jpg"
    ],
    "services": [
      "Group X",
      "Huấn luyện viên cá nhân",
      "Tập sức mạnh"
    ],
    "amenities": [
      "Phòng thay đồ tiện nghi",
      "Nước uống miễn phí",
      "Khu vực thư giãn"
    ],
    "trainers": [
      {
        "id": "trainer_003",
        "name": "Lê Văn Dũng",
        "specialization": "Tập sức mạnh",
        "rating": 4.9,
        "imageUrl": "https://example.com/trainer3.jpg",
        "phone": "0901122334",
        "description": "HLV chuyên về tập luyện sức mạnh và thể hình."
      }
    ]
  },
  {
    "id": "hadong_003",
    "name": "Sweat Fitness Studios Hà Đông",
    "address": "Tầng 3, TTTM Hồ Gươm Plaza, 110 Trần Phú, Quận Hà Đông, Hà Nội",
    "phone": "024 7307 9966",
    "hours": "6:00 - 22:00",
    "description": "Sweat Fitness Studios mang đến trải nghiệm tập luyện độc đáo.",
    "latitude": 20.978135,
    "longitude": 105.781921,
    "imageUrls": [],
    "services": [
      "HIIT",
      "Kickboxing"
    ],
    "amenities": [
      "Quầy bar dinh dưỡng",
      "Chỗ đậu xe"
    ],
    "trainers": []
  },
  {
    "id": "hadong_004",
    "name": "Vinhomes Smart City Gym",
    "address": "Khu đô thị Vinhomes Smart City, Quận Hà Đông, Hà Nội",
    "phone": "0978123456",
    "hours": "5:30 - 21:30",
    "description": "Phòng gym hiện đại nằm trong khu đô thị Vinhomes Smart City.",
    "latitude": 20.9938,
    "longitude": 105.7494,
    "imageUrls": [],
    "services": [
      "Tập sức mạnh",
      "Cardio",
      "Huấn luyện viên cá nhân"
    ],
    "amenities": [
      "Bể bơi bốn mùa",
      "Khu vực thư giãn"
    ],
    "trainers": [
       {
        "id": "trainer_004",
        "name": "Phạm Thị Lan",
        "specialization": "Cardio",
        "rating": 4.7,
        "imageUrl": "https://example.com/trainer4.jpg",
        "phone": "0968765432",
        "description": "Chuyên gia các bài tập tim mạch và giảm cân."
      }
    ]
  },
  {
    "id": "hadong_005",
    "name": "Aeon Mall Hà Đông Gym",
    "address": "Tầng 3, TTTM Aeon Mall Hà Đông, Quận Hà Đông, Hà Nội",
    "phone": "024 11223344",
    "hours": "9:00 - 22:00",
    "description": "Phòng gym tiện lợi nằm trong trung tâm thương mại Aeon Mall.",
    "latitude": 20.9623,
    "longitude": 105.7533,
    "imageUrls": [],
    "services": [
      "Yoga",
      "Zumba"
    ],
    "amenities": [
      "Chỗ đậu xe",
      "Quán cà phê"
    ],
    "trainers": []
  },
   {
    "id": "hadong_006",
    "name": "Fitness Center 101 - Hà Đông",
    "address": "Số 101, Đường Quang Trung, Quận Hà Đông, Hà Nội",
    "phone": "0909888999",
    "hours": "6:00 - 21:00",
    "description": "Trung tâm fitness với nhiều lớp học đa dạng.",
    "latitude": 20.9765,
    "longitude": 105.7854,
    "imageUrls": [],
    "services": [
      "Group X",
      "Pilates",
      "Boxing"
    ],
    "amenities": [
      "Phòng xông hơi",
      "Phòng thay đồ tiện nghi"
    ],
    "trainers": []
  },
   {
    "id": "hadong_007",
    "name": "Gymnasium Hà Đông Sports Complex",
    "address": "Đường Phúc La, Quận Hà Đông, Hà Nội",
    "phone": "024 56781234",
    "hours": "5:00 - 21:00",
    "description": "Phòng tập thuộc khu liên hợp thể thao Hà Đông.",
    "latitude": 20.9701,
    "longitude": 105.7770,
    "imageUrls": [],
    "services": [
      "Tập sức mạnh",
      "Cardio",
      "HIIT"
    ],
    "amenities": [
      "Bể bơi",
      "Chỗ đậu xe"
    ],
    "trainers": []
  },
  {
    "id": "hadong_008",
    "name": "Zen Fitness & Yoga Hà Đông",
    "address": "Tòa nhà CTx, Khu đô thị mới, Quận Hà Đông, Hà Nội",
    "phone": "0911223344",
    "hours": "6:30 - 21:30",
    "description": "Không gian tập Yoga và Fitness yên tĩnh, thư giãn.",
    "latitude": 20.9856,
    "longitude": 105.7612,
    "imageUrls": [],
    "services": [
      "Yoga",
      "Pilates",
      "Yoga nâng cao"
    ],
    "amenities": [
      "Khu vực thư giãn",
      "Nước uống miễn phí"
    ],
    "trainers": []
  },
  {
    "id": "hadong_009",
    "name": "BodyFit Hà Đông",
    "address": "Số 24, Ngõ 10, Đường Nguyễn Khuyến, Quận Hà Đông, Hà Nội",
    "phone": "0909111222",
    "hours": "5:30 - 21:00",
    "description": "Phòng gym nhỏ gọn, thân thiện.",
    "latitude": 20.9718,
    "longitude": 105.7735,
    "imageUrls": [],
    "services": [
      "Tập sức mạnh",
      "Boxing"
    ],
    "amenities": [
      "Phòng thay đồ tiện nghi"
    ],
    "trainers": []
  },
  {
    "id": "hadong_010",
    "name": "Star Fitness - Hà Đông",
    "address": "Tòa nhà ABC, Đường Trần Phú, Quận Hà Đông, Hà Nội",
    "phone": "024 98765432",
    "hours": "7:00 - 21:00",
    "description": "Trung tâm fitness với trang thiết bị hiện đại.",
    "latitude": 20.9801,
    "longitude": 105.7830,
    "imageUrls": [],
    "services": [
      "Huấn luyện viên cá nhân",
      "Group X",
      "HIIT"
    ],
    "amenities": [
      "Quầy bar dinh dưỡng",
      "Chỗ đậu xe"
    ],
    "trainers": [
       {
        "id": "trainer_005",
        "name": "Trần Hoàng Nam",
        "specialization": "HIIT",
        "rating": 4.8,
        "imageUrl": "https://example.com/trainer5.jpg",
        "phone": "0945678901",
        "description": "HLV chuyên về các bài tập cường độ cao ngắt quãng."
      }
    ]
  }
] 